{
    "meta": {
        "user_id": 102580719,
        "origin": "تهران",
        "destination": "مشهد",
        "start_time": "01:00",
        "estimated_arrival": "12:24",
        "with_traffic_buffer": false,
        "coldest_celsius": 4,
        "warmest_celsius": 18,
        "generated_at": "2025-12-08T23:15:42.088269"
    },
    "schedule": [
        {
            "place": "تهران",
            "type": "city",
            "coords": {
                "lat": 35.6892523,
                "lon": 51.3896004
            },
            "arrival_seconds": 0.0,
            "temperature_celsius": 8,
            "arrival_time": "01:00"
        },
        {
            "place": "حر",
            "type": "neighbourhood",
            "coords": {
                "lat": 35.6874344,
                "lon": 51.3899265
            },
            "arrival_seconds": 11.303988133331035,
            "temperature_celsius": 8,
            "arrival_time": "01:00"
        },
        {
            "place": "میدان حر",
            "type": "neighbourhood",
            "coords": {
                "lat": 35.6881807,
                "lon": 51.3928643
            },
            "arrival_seconds": 17.59402256810212,
            "temperature_celsius": 8,
            "arrival_time": "01:00"
        },
        {
            "place": "چهار راه کمالی",
            "type": "neighbourhood",
            "coords": {
                "lat": 35.6881172,
                "lon": 51.3837061
            },
            "arrival_seconds": 30.274151625832907,
            "temperature_celsius": 8,
            "arrival_time": "01:00"
        },
        {
            "place": "اسکندری",
            "type": "neighbourhood",
            "coords": {
                "lat": 35.6886157,
                "lon": 51.3813448
            },
            "arrival_seconds": 41.44371985283091,
            "temperature_celsius": 8,
            "arrival_time": "01:00"
        },
        {
            "place": "آذربایجان",
            "type": "neighbourhood",
            "coords": {
                "lat": 35.6917364,
                "lon": 51.3979422
            },
            "arrival_seconds": 44.40201414144745,
            "temperature_celsius": 8,
            "arrival_time": "01:00"
        },
        {
            "place": "منطقه ۱۱",
            "type": "suburb",
            "coords": {
                "lat": 35.682822,
                "lon": 51.3941791
            },
            "arrival_seconds": 45.707605313285136,
            "temperature_celsius": 8,
            "arrival_time": "01:00"
        },
        {
            "place": "جمالزاده",
            "type": "neighbourhood",
            "coords": {
                "lat": 35.6972201,
                "lon": 51.3882841
            },
            "arrival_seconds": 49.46672655027749,
            "temperature_celsius": 7,
            "arrival_time": "01:00"
        },
        {
            "place": "حشمت الدوله",
            "type": "neighbourhood",
            "coords": {
                "lat": 35.6969406,
                "lon": 51.3846304
            },
            "arrival_seconds": 53.431020718488035,
            "temperature_celsius": 7,
            "arrival_time": "01:00"
        },
        {
            "place": "جمهوری",
            "type": "neighbourhood",
            "coords": {
                "lat": 35.6970345,
                "lon": 51.3820294
            },
            "arrival_seconds": 61.02855250206659,
            "temperature_celsius": 7,
            "arrival_time": "01:01"
        },
        {
            "place": "منیریه",
            "type": "neighbourhood",
            "coords": {
                "lat": 35.6840724,
                "lon": 51.4016337
            },
            "arrival_seconds": 68.06337411266314,
            "temperature_celsius": 8,
            "arrival_time": "01:01"
        },
        {
            "place": "مخصوص",
            "type": "neighbourhood",
            "coords": {
                "lat": 35.6781781,
                "lon": 51.3892558
            },
            "arrival_seconds": 68.163453089035,
            "temperature_celsius": 8,
            "arrival_time": "01:01"
        },
        {
            "place": "فلسطین - انقلاب",
            "type": "neighbourhood",
            "coords": {
                "lat": 35.6984557,
                "lon": 51.398143
            },
            "arrival_seconds": 70.91837007812688,
            "temperature_celsius": 7,
            "arrival_time": "01:01"
        },
        {
            "place": "سلسبیل جنوبی",
            "type": "neighbourhood",
            "coords": {
                "lat": 35.6860699,
                "lon": 51.3751364
            },
            "arrival_seconds": 74.89179772626615,
            "temperature_celsius": 8,
            "arrival_time": "01:01"
        },
        {
            "place": "خرمشهر",
            "type": "neighbourhood",
            "coords": {
                "lat": 35.6764746,
                "lon": 51.3836292
            },
            "arrival_seconds": 84.09720576446625,
            "temperature_celsius": 8,
            "arrival_time": "01:01"
        },
        {
            "place": "امیریه",
            "type": "neighbourhood",
            "coords": {
                "lat": 35.6781799,
                "lon": 51.400731
            },
            "arrival_seconds": 87.9572025395542,
            "temperature_celsius": 8,
            "arrival_time": "01:01"
        },
        {
            "place": "سلسبیل شمالی",
            "type": "neighbourhood",
            "coords": {
                "lat": 35.6961197,
                "lon": 51.37395
            },
            "arrival_seconds": 88.89617488267423,
            "temperature_celsius": 7,
            "arrival_time": "01:01"
        },
        {
            "place": "شیخ هادی",
            "type": "neighbourhood",
            "coords": {
                "lat": 35.6939072,
                "lon": 51.4077661
            },
            "arrival_seconds": 95.1931980611501,
            "temperature_celsius": 7,
            "arrival_time": "01:01"
        },
        {
            "place": "بریانک",
            "type": "neighbourhood",
            "coords": {
                "lat": 35.6752015,
                "lon": 51.3769458
            },
            "arrival_seconds": 107.1221972399514,
            "temperature_celsius": 8,
            "arrival_time": "01:01"
        },
        {
            "place": "چهارراه ولیعصر",
            "type": "locality",
            "coords": {
                "lat": 35.7012502,
                "lon": 51.4052013
            },
            "arrival_seconds": 107.36893679251159,
            "temperature_celsius": 7,
            "arrival_time": "01:01"
        },
        {
            "place": "دانشگاه تهران",
            "type": "neighbourhood",
            "coords": {
                "lat": 35.7052672,
                "lon": 51.3982903
            },
            "arrival_seconds": 107.68626408548643,
            "temperature_celsius": 7,
            "arrival_time": "01:01"
        },
        {
            "place": "هلال احمر",
            "type": "neighbourhood",
            "coords": {
                "lat": 35.6709446,
                "lon": 51.389084
            },
            "arrival_seconds": 112.68037796092327,
            "temperature_celsius": 8,
            "arrival_time": "01:01"
        },
        {
            "place": "کارون جنوبی",
            "type": "neighbourhood",
            "coords": {
                "lat": 35.6855115,
                "lon": 51.3673882
            },
            "arrival_seconds": 113.37111515321233,
            "temperature_celsius": 8,
            "arrival_time": "01:01"
        },
        {
            "place": "منطقه ۱۰",
            "type": "suburb",
            "coords": {
                "lat": 35.6867716,
                "lon": 51.3663177
            },
            "arrival_seconds": 117.35589661937642,
            "temperature_celsius": 8,
            "arrival_time": "01:01"
        },
        {
            "place": "قلمستان",
            "type": "neighbourhood",
            "coords": {
                "lat": 35.6711738,
                "lon": 51.3980348
            },
            "arrival_seconds": 118.96053300531577,
            "temperature_celsius": 8,
            "arrival_time": "01:01"
        },
        {
            "place": "کارون شمالی",
            "type": "neighbourhood",
            "coords": {
                "lat": 35.6947765,
                "lon": 51.3656464
            },
            "arrival_seconds": 124.44034344174203,
            "temperature_celsius": 8,
            "arrival_time": "01:02"
        },
        {
            "place": "چهارراه گلی",
            "type": "locality",
            "coords": {
                "lat": 35.685078,
                "lon": 51.3642711
            },
            "arrival_seconds": 129.16805624098788,
            "temperature_celsius": 8,
            "arrival_time": "01:02"
        },
        {
            "place": "هفت چنار",
            "type": "neighbourhood",
            "coords": {
                "lat": 35.675202,
                "lon": 51.3690586
            },
            "arrival_seconds": 134.22040406389243,
            "temperature_celsius": 8,
            "arrival_time": "01:02"
        },
        {
            "place": "گمرک",
            "type": "neighbourhood",
            "coords": {
                "lat": 35.6659599,
                "lon": 51.3954428
            },
            "arrival_seconds": 146.26736418231013,
            "temperature_celsius": 8,
            "arrival_time": "01:02"
        },
        {
            "place": "هاشمی",
            "type": "neighbourhood",
            "coords": {
                "lat": 35.6846963,
                "lon": 51.3593942
            },
            "arrival_seconds": 153.54313213362798,
            "temperature_celsius": 8,
            "arrival_time": "01:02"
        },
        {
            "place": "زنجان جنوبی",
            "type": "neighbourhood",
            "coords": {
                "lat": 35.6948656,
                "lon": 51.3596154
            },
            "arrival_seconds": 153.77635156682373,
            "temperature_celsius": 8,
            "arrival_time": "01:02"
        },
        {
            "place": "عباسی",
            "type": "neighbourhood",
            "coords": {
                "lat": 35.6640464,
                "lon": 51.3852464
            },
            "arrival_seconds": 156.61619324929447,
            "temperature_celsius": 8,
            "arrival_time": "01:02"
        },
        {
            "place": "آگاهی",
            "type": "neighbourhood",
            "coords": {
                "lat": 35.6649063,
                "lon": 51.4013005
            },
            "arrival_seconds": 160.81594982917957,
            "temperature_celsius": 8,
            "arrival_time": "01:02"
        },
        {
            "place": "سلیمانی تیموری",
            "type": "neighbourhood",
            "coords": {
                "lat": 35.6730745,
                "lon": 51.3641776
            },
            "arrival_seconds": 161.41511397651888,
            "temperature_celsius": 8,
            "arrival_time": "01:02"
        },
        {
            "place": "انبار نفت",
            "type": "neighbourhood",
            "coords": {
                "lat": 35.6629658,
                "lon": 51.3912122
            },
            "arrival_seconds": 161.946428245998,
            "temperature_celsius": 8,
            "arrival_time": "01:02"
        },
        {
            "place": "بلورسازی",
            "type": "neighbourhood",
            "coords": {
                "lat": 35.662873,
                "lon": 51.3784
            },
            "arrival_seconds": 171.7003490346149,
            "temperature_celsius": 8,
            "arrival_time": "01:02"
        },
        {
            "place": "میدان رباط کریم",
            "type": "locality",
            "coords": {
                "lat": 35.660235,
                "lon": 51.385418
            },
            "arrival_seconds": 179.76877051676593,
            "temperature_celsius": 8,
            "arrival_time": "01:03"
        },
        {
            "place": "باغ خزانه",
            "type": "neighbourhood",
            "coords": {
                "lat": 35.6640407,
                "lon": 51.3707078
            },
            "arrival_seconds": 181.6131309781925,
            "temperature_celsius": 8,
            "arrival_time": "01:03"
        },
        {
            "place": "میدان بهداری",
            "type": "locality",
            "coords": {
                "lat": 35.6599073,
                "lon": 51.3938142
            },
            "arrival_seconds": 181.7897650755879,
            "temperature_celsius": 8,
            "arrival_time": "01:03"
        },
        {
            "place": "میدان راه آهن",
            "type": "locality",
            "coords": {
                "lat": 35.6593141,
                "lon": 51.3980115
            },
            "arrival_seconds": 188.95231298362265,
            "temperature_celsius": 8,
            "arrival_time": "01:03"
        },
        {
            "place": "تختی",
            "type": "neighbourhood",
            "coords": {
                "lat": 35.6629344,
                "lon": 51.4103079
            },
            "arrival_seconds": 192.19118589506863,
            "temperature_celsius": 8,
            "arrival_time": "01:03"
        },
        {
            "place": "امام زاده حسن",
            "type": "neighbourhood",
            "coords": {
                "lat": 35.6655992,
                "lon": 51.3604306
            },
            "arrival_seconds": 206.0100656415492,
            "temperature_celsius": 8,
            "arrival_time": "01:03"
        },
        {
            "place": "سرای محله ابوذر شرقی",
            "type": "neighbourhood",
            "coords": {
                "lat": 35.6594598,
                "lon": 51.3679085
            },
            "arrival_seconds": 212.98433262753247,
            "temperature_celsius": 8,
            "arrival_time": "01:03"
        },
        {
            "place": "میدان مقدم",
            "type": "locality",
            "coords": {
                "lat": 35.6573878,
                "lon": 51.3728173
            },
            "arrival_seconds": 213.2618870710319,
            "temperature_celsius": 8,
            "arrival_time": "01:03"
        },
        {
            "place": "مقدم",
            "type": "neighbourhood",
            "coords": {
                "lat": 35.6562978,
                "lon": 51.374727
            },
            "arrival_seconds": 215.97510214959414,
            "temperature_celsius": 8,
            "arrival_time": "01:03"
        },
        {
            "place": "ناحیه ۴",
            "type": "quarter",
            "coords": {
                "lat": 35.6637817,
                "lon": 51.4194488
            },
            "arrival_seconds": 216.38302518499387,
            "temperature_celsius": 8,
            "arrival_time": "01:03"
        },
        {
            "place": "جوادیه",
            "type": "neighbourhood",
            "coords": {
                "lat": 35.653443,
                "lon": 51.3923433
            },
            "arrival_seconds": 220.76771320312932,
            "temperature_celsius": 7,
            "arrival_time": "01:03"
        },
        {
            "place": "منطقه ۱۷",
            "type": "suburb",
            "coords": {
                "lat": 35.6595788,
                "lon": 51.3615112
            },
            "arrival_seconds": 230.32857137888365,
            "temperature_celsius": 8,
            "arrival_time": "01:03"
        },
        {
            "place": "گلچین",
            "type": "neighbourhood",
            "coords": {
                "lat": 35.6535839,
                "lon": 51.3672088
            },
            "arrival_seconds": 246.36789883371787,
            "temperature_celsius": 7,
            "arrival_time": "01:04"
        },
        {
            "place": "فلاح",
            "type": "neighbourhood",
            "coords": {
                "lat": 35.6542843,
                "lon": 51.3647609
            },
            "arrival_seconds": 248.42053353220007,
            "temperature_celsius": 7,
            "arrival_time": "01:04"
        },
        {
            "place": "میدان بهمن",
            "type": "locality",
            "coords": {
                "lat": 35.6493414,
                "lon": 51.3980393
            },
            "arrival_seconds": 249.17628519949184,
            "temperature_celsius": 7,
            "arrival_time": "01:04"
        },
        {
            "place": "میدان جلیلی",
            "type": "locality",
            "coords": {
                "lat": 35.653216,
                "lon": 51.3611951
            },
            "arrival_seconds": 263.3039835565467,
            "temperature_celsius": 7,
            "arrival_time": "01:04"
        },
        {
            "place": "بوستان ولایت",
            "type": "neighbourhood",
            "coords": {
                "lat": 35.6460009,
                "lon": 51.3813237
            },
            "arrival_seconds": 269.3311815542511,
            "temperature_celsius": 7,
            "arrival_time": "01:04"
        },
        {
            "place": "زمزم",
            "type": "neighbourhood",
            "coords": {
                "lat": 35.6483866,
                "lon": 51.367811
            },
            "arrival_seconds": 274.0317927166034,
            "temperature_celsius": 7,
            "arrival_time": "01:04"
        },
        {
            "place": "جلیلی",
            "type": "neighbourhood",
            "coords": {
                "lat": 35.6501483,
                "lon": 51.3622362
            },
            "arrival_seconds": 276.7785327561988,
            "temperature_celsius": 7,
            "arrival_time": "01:04"
        },
        {
            "place": "چهارراه چیت سازی",
            "type": "locality",
            "coords": {
                "lat": 35.6479326,
                "lon": 51.4125591
            },
            "arrival_seconds": 278.9510817694386,
            "temperature_celsius": 7,
            "arrival_time": "01:04"
        },
        {
            "place": "باغ آذری",
            "type": "neighbourhood",
            "coords": {
                "lat": 35.652293,
                "lon": 51.4223924
            },
            "arrival_seconds": 280.3357314505695,
            "temperature_celsius": 7,
            "arrival_time": "01:04"
        },
        {
            "place": "پلاک 13",
            "type": "isolated_dwelling",
            "coords": {
                "lat": 35.6461569,
                "lon": 51.3646001
            },
            "arrival_seconds": 293.1486046048434,
            "temperature_celsius": 7,
            "arrival_time": "01:04"
        },
        {
            "place": "نازی آباد",
            "type": "neighbourhood",
            "coords": {
                "lat": 35.6415378,
                "lon": 51.4024937
            },
            "arrival_seconds": 300.58828079150845,
            "temperature_celsius": 7,
            "arrival_time": "01:05"
        },
        {
            "place": "شوش",
            "type": "neighbourhood",
            "coords": {
                "lat": 35.6584694,
                "lon": 51.4392135
            },
            "arrival_seconds": 312.0544746288397,
            "temperature_celsius": 8,
            "arrival_time": "01:05"
        },
        {
            "place": "شهرک شریعتی شمالی",
            "type": "neighbourhood",
            "coords": {
                "lat": 35.64047,
                "lon": 51.3716841
            },
            "arrival_seconds": 313.2445622701367,
            "temperature_celsius": 7,
            "arrival_time": "01:05"
        },
        {
            "place": "منطقه ۱۶",
            "type": "suburb",
            "coords": {
                "lat": 35.6408871,
                "lon": 51.4095764
            },
            "arrival_seconds": 313.9082804381828,
            "temperature_celsius": 7,
            "arrival_time": "01:05"
        },
        {
            "place": "مجتمع مسکونی غدیر",
            "type": "square",
            "coords": {
                "lat": 35.658061,
                "lon": 51.439834
            },
            "arrival_seconds": 316.0452174344161,
            "temperature_celsius": 8,
            "arrival_time": "01:05"
        },
        {
            "place": "مظاهری",
            "type": "neighbourhood",
            "coords": {
                "lat": 35.6553477,
                "lon": 51.4374983
            },
            "arrival_seconds": 317.56419484294406,
            "temperature_celsius": 7,
            "arrival_time": "01:05"
        },
        {
            "place": "تیردوقلو",
            "type": "locality",
            "coords": {
                "lat": 35.6609173,
                "lon": 51.4452661
            },
            "arrival_seconds": 328.35567560210245,
            "temperature_celsius": 8,
            "arrival_time": "01:05"
        },
        {
            "place": "خزانه",
            "type": "neighbourhood",
            "coords": {
                "lat": 35.6407457,
                "lon": 51.4204924
            },
            "arrival_seconds": 336.0564215685196,
            "temperature_celsius": 7,
            "arrival_time": "01:05"
        },
        {
            "place": "سه راه شریعتی",
            "type": "locality",
            "coords": {
                "lat": 35.6346398,
                "lon": 51.378903
            },
            "arrival_seconds": 340.2701488607978,
            "temperature_celsius": 7,
            "arrival_time": "01:05"
        },
        {
            "place": "خانی آباد شمالی",
            "type": "neighbourhood",
            "coords": {
                "lat": 35.6328357,
                "lon": 51.3894905
            },
            "arrival_seconds": 347.14266912301883,
            "temperature_celsius": 7,
            "arrival_time": "01:05"
        },
        {
            "place": "طیب",
            "type": "neighbourhood",
            "coords": {
                "lat": 35.6603775,
                "lon": 51.4503436
            },
            "arrival_seconds": 351.78816429116046,
            "temperature_celsius": 8,
            "arrival_time": "01:05"
        },
        {
            "place": "مطهری",
            "type": "neighbourhood",
            "coords": {
                "lat": 35.649898,
                "lon": 51.4414624
            },
            "arrival_seconds": 354.75145121904455,
            "temperature_celsius": 7,
            "arrival_time": "01:05"
        },
        {
            "place": "شهرک ولیعصر",
            "type": "neighbourhood",
            "coords": {
                "lat": 35.6305589,
                "lon": 51.3959931
            },
            "arrival_seconds": 362.56319120974774,
            "temperature_celsius": 7,
            "arrival_time": "01:06"
        },
        {
            "place": "شهرک سجادیه",
            "type": "neighbourhood",
            "coords": {
                "lat": 35.6464012,
                "lon": 51.4395756
            },
            "arrival_seconds": 363.22656459773214,
            "temperature_celsius": 7,
            "arrival_time": "01:06"
        },
        {
            "place": "چهارصد دستگاه",
            "type": "neighbourhood",
            "coords": {
                "lat": 35.6317605,
                "lon": 51.4077078
            },
            "arrival_seconds": 365.15714801027735,
            "temperature_celsius": 7,
            "arrival_time": "01:06"
        },
        {
            "place": "مجتمع ۲۲ بهمن",
            "type": "square",
            "coords": {
                "lat": 35.6298024,
                "lon": 51.3864089
            },
            "arrival_seconds": 366.1545269833405,
            "temperature_celsius": 7,
            "arrival_time": "01:06"
        },
        {
            "place": "ولیعصر - بی سیم",
            "type": "neighbourhood",
            "coords": {
                "lat": 35.6540538,
                "lon": 51.4502028
            },
            "arrival_seconds": 372.39247262185836,
            "temperature_celsius": 7,
            "arrival_time": "01:06"
        },
        {
            "place": "شهرک بعثت",
            "type": "neighbourhood",
            "coords": {
                "lat": 35.6382089,
                "lon": 51.4307583
            },
            "arrival_seconds": 375.4751403834237,
            "temperature_celsius": 7,
            "arrival_time": "01:06"
        },
        {
            "place": "بلوک ۱",
            "type": "city_block",
            "coords": {
                "lat": 35.6307327,
                "lon": 51.4223092
            },
            "arrival_seconds": 395.47400139681906,
            "temperature_celsius": 7,
            "arrival_time": "01:06"
        },
        {
            "place": "بلوک A",
            "type": "city_block",
            "coords": {
                "lat": 35.630765,
                "lon": 51.4226064
            },
            "arrival_seconds": 395.9100011670127,
            "temperature_celsius": 7,
            "arrival_time": "01:06"
        },
        {
            "place": "بلوک ۲",
            "type": "city_block",
            "coords": {
                "lat": 35.6304584,
                "lon": 51.4223682
            },
            "arrival_seconds": 397.1330899143192,
            "temperature_celsius": 7,
            "arrival_time": "01:06"
        },
        {
            "place": "بلوک B",
            "type": "city_block",
            "coords": {
                "lat": 35.6305339,
                "lon": 51.4226841
            },
            "arrival_seconds": 397.36468194532495,
            "temperature_celsius": 7,
            "arrival_time": "01:06"
        },
        {
            "place": "مینایی",
            "type": "neighbourhood",
            "coords": {
                "lat": 35.6522919,
                "lon": 51.4560313
            },
            "arrival_seconds": 402.4832864210046,
            "temperature_celsius": 7,
            "arrival_time": "01:06"
        },
        {
            "place": "کیانشهر شمالی",
            "type": "neighbourhood",
            "coords": {
                "lat": 35.6412198,
                "lon": 51.448245
            },
            "arrival_seconds": 416.2931059182282,
            "temperature_celsius": 7,
            "arrival_time": "01:06"
        },
        {
            "place": "اتابک",
            "type": "neighbourhood",
            "coords": {
                "lat": 35.6480563,
                "lon": 51.462443
            },
            "arrival_seconds": 443.6741923760709,
            "temperature_celsius": 7,
            "arrival_time": "01:07"
        },
        {
            "place": "کیانشهر جنوبی",
            "type": "neighbourhood",
            "coords": {
                "lat": 35.6344204,
                "lon": 51.4503847
            },
            "arrival_seconds": 454.06515525734164,
            "temperature_celsius": 7,
            "arrival_time": "01:07"
        },
        {
            "place": "شهرک شهید بروجردی",
            "type": "neighbourhood",
            "coords": {
                "lat": 35.6388367,
                "lon": 51.4674445
            },
            "arrival_seconds": 497.6707238222415,
            "temperature_celsius": 7,
            "arrival_time": "01:08"
        },
        {
            "place": "هاشم آباد",
            "type": "neighbourhood",
            "coords": {
                "lat": 35.6439769,
                "lon": 51.4729129
            },
            "arrival_seconds": 501.0650452677068,
            "temperature_celsius": 9,
            "arrival_time": "01:08"
        },
        {
            "place": "ابوذر - آهنگ",
            "type": "neighbourhood",
            "coords": {
                "lat": 35.6519301,
                "lon": 51.4793974
            },
            "arrival_seconds": 504.2083803723398,
            "temperature_celsius": 9,
            "arrival_time": "01:08"
        },
        {
            "place": "منطقه ۱۵",
            "type": "suburb",
            "coords": {
                "lat": 35.6392778,
                "lon": 51.4704848
            },
            "arrival_seconds": 507.9952198843082,
            "temperature_celsius": 10,
            "arrival_time": "01:08"
        },
        {
            "place": "مجتمع مسکونی صنایع دفاع",
            "type": "neighbourhood",
            "coords": {
                "lat": 35.6388652,
                "lon": 51.4718575
            },
            "arrival_seconds": 514.9995493265336,
            "temperature_celsius": 10,
            "arrival_time": "01:08"
        },
        {
            "place": "مجتمع مسکونی بعثت",
            "type": "neighbourhood",
            "coords": {
                "lat": 35.6389671,
                "lon": 51.477095
            },
            "arrival_seconds": 535.7753813236701,
            "temperature_celsius": 10,
            "arrival_time": "01:08"
        },
        {
            "place": "افسریه جنوبی",
            "type": "neighbourhood",
            "coords": {
                "lat": 35.6453003,
                "lon": 51.490345
            },
            "arrival_seconds": 571.6393122187486,
            "temperature_celsius": 9,
            "arrival_time": "01:09"
        },
        {
            "place": "اسلام آباد",
            "type": "neighbourhood",
            "coords": {
                "lat": 35.6370184,
                "lon": 51.4896796
            },
            "arrival_seconds": 594.6586590744913,
            "temperature_celsius": 9,
            "arrival_time": "01:09"
        },
        {
            "place": "مشیریه",
            "type": "neighbourhood",
            "coords": {
                "lat": 35.624493,
                "lon": 51.4796751
            },
            "arrival_seconds": 601.3218162431751,
            "temperature_celsius": 7,
            "arrival_time": "01:10"
        },
        {
            "place": "اسلام آباد - والفجر",
            "type": "neighbourhood",
            "coords": {
                "lat": 35.6398189,
                "lon": 51.4951988
            },
            "arrival_seconds": 609.2615667035275,
            "temperature_celsius": 9,
            "arrival_time": "01:10"
        },
        {
            "place": "مسعودیه",
            "type": "neighbourhood",
            "coords": {
                "lat": 35.6311765,
                "lon": 51.4943903
            },
            "arrival_seconds": 634.1586244451228,
            "temperature_celsius": 9,
            "arrival_time": "01:10"
        },
        {
            "place": "میدان آقانور (ثامن الحجج)",
            "type": "locality",
            "coords": {
                "lat": 35.6262248,
                "lon": 51.4912006
            },
            "arrival_seconds": 639.080215755007,
            "temperature_celsius": 9,
            "arrival_time": "01:10"
        },
        {
            "place": "شهرک رضویه",
            "type": "neighbourhood",
            "coords": {
                "lat": 35.6116661,
                "lon": 51.4950776
            },
            "arrival_seconds": 711.3722099966272,
            "temperature_celsius": 9,
            "arrival_time": "01:11"
        },
        {
            "place": "مسگرآباد",
            "type": "neighbourhood",
            "coords": {
                "lat": 35.6262034,
                "lon": 51.5124788
            },
            "arrival_seconds": 726.5789177951383,
            "temperature_celsius": 8,
            "arrival_time": "01:12"
        },
        {
            "place": "سه راه سیمان",
            "type": "locality",
            "coords": {
                "lat": 35.5835369,
                "lon": 51.5331024
            },
            "arrival_seconds": 968.5747597267649,
            "temperature_celsius": 9,
            "arrival_time": "01:16"
        },
        {
            "place": "محمود آباد",
            "type": "village",
            "coords": {
                "lat": 35.550617,
                "lon": 51.547152
            },
            "arrival_seconds": 1161.3493133902452,
            "temperature_celsius": 6,
            "arrival_time": "01:19"
        },
        {
            "place": "خاورشهر",
            "type": "town",
            "coords": {
                "lat": 35.555372,
                "lon": 51.5589814
            },
            "arrival_seconds": 1181.6883512089348,
            "temperature_celsius": 10,
            "arrival_time": "01:19"
        },
        {
            "place": "فاز دو",
            "type": "suburb",
            "coords": {
                "lat": 35.554183,
                "lon": 51.563466
            },
            "arrival_seconds": 1202.9199317251057,
            "temperature_celsius": 10,
            "arrival_time": "01:20"
        },
        {
            "place": "شهرک صنعتی خاوران",
            "type": "neighbourhood",
            "coords": {
                "lat": 35.5462186,
                "lon": 51.6115688
            },
            "arrival_seconds": 1416.8138282290784,
            "temperature_celsius": 9,
            "arrival_time": "01:23"
        },
        {
            "place": "شهرک مسکن مهر امین",
            "type": "neighbourhood",
            "coords": {
                "lat": 35.5234659,
                "lon": 51.6217332
            },
            "arrival_seconds": 1545.7251413113122,
            "temperature_celsius": 9,
            "arrival_time": "01:25"
        },
        {
            "place": "مجتمع مسکونی نیرو انتظامی",
            "type": "neighbourhood",
            "coords": {
                "lat": 35.5192629,
                "lon": 51.6401203
            },
            "arrival_seconds": 1632.449491711941,
            "temperature_celsius": 9,
            "arrival_time": "01:27"
        },
        {
            "place": "شهرک قیامدشت",
            "type": "town",
            "coords": {
                "lat": 35.5237555,
                "lon": 51.6510033
            },
            "arrival_seconds": 1657.4596773984417,
            "temperature_celsius": 8,
            "arrival_time": "01:27"
        },
        {
            "place": "خاتون آباد",
            "type": "village",
            "coords": {
                "lat": 35.4967354,
                "lon": 51.6598481
            },
            "arrival_seconds": 1797.7027492132424,
            "temperature_celsius": 10,
            "arrival_time": "01:29"
        },
        {
            "place": "قوهه",
            "type": "village",
            "coords": {
                "lat": 35.4757211,
                "lon": 51.6651828
            },
            "arrival_seconds": 1904.7838762018732,
            "temperature_celsius": 10,
            "arrival_time": "01:31"
        },
        {
            "place": "شهرک الهیه فاز ۱",
            "type": "neighbourhood",
            "coords": {
                "lat": 35.4877113,
                "lon": 51.6886144
            },
            "arrival_seconds": 1943.3480991753108,
            "temperature_celsius": 9,
            "arrival_time": "01:32"
        },
        {
            "place": "شهرک دانشگاه",
            "type": "neighbourhood",
            "coords": {
                "lat": 35.4825926,
                "lon": 51.6841936
            },
            "arrival_seconds": 1946.8291716747094,
            "temperature_celsius": 9,
            "arrival_time": "01:32"
        },
        {
            "place": "پاکدشت",
            "type": "town",
            "coords": {
                "lat": 35.4784573,
                "lon": 51.6824624
            },
            "arrival_seconds": 1957.0766975233475,
            "temperature_celsius": 9,
            "arrival_time": "01:32"
        },
        {
            "place": "چهار راه ابن سینا",
            "type": "locality",
            "coords": {
                "lat": 35.4779366,
                "lon": 51.6821802
            },
            "arrival_seconds": 1958.1490471746931,
            "temperature_celsius": 9,
            "arrival_time": "01:32"
        },
        {
            "place": "میدان ساعت",
            "type": "locality",
            "coords": {
                "lat": 35.4779191,
                "lon": 51.6821631
            },
            "arrival_seconds": 1958.1566920663035,
            "temperature_celsius": 9,
            "arrival_time": "01:32"
        },
        {
            "place": "شهرک الهیه فاز ۲",
            "type": "locality",
            "coords": {
                "lat": 35.4868319,
                "lon": 51.6975812
            },
            "arrival_seconds": 1981.5042431245874,
            "temperature_celsius": 9,
            "arrival_time": "01:33"
        },
        {
            "place": "شهرک شهدا ظفر",
            "type": "suburb",
            "coords": {
                "lat": 35.4730632,
                "lon": 51.6985524
            },
            "arrival_seconds": 2039.6068229378855,
            "temperature_celsius": 9,
            "arrival_time": "01:34"
        },
        {
            "place": "شهرک فرهنگیان پاکدشت",
            "type": "neighbourhood",
            "coords": {
                "lat": 35.470082,
                "lon": 51.7065951
            },
            "arrival_seconds": 2082.1397016553265,
            "temperature_celsius": 9,
            "arrival_time": "01:34"
        },
        {
            "place": "شهرک مدائن",
            "type": "neighbourhood",
            "coords": {
                "lat": 35.477901,
                "lon": 51.7190623
            },
            "arrival_seconds": 2099.86501938228,
            "temperature_celsius": 10,
            "arrival_time": "01:35"
        },
        {
            "place": "شهرک نرگس",
            "type": "suburb",
            "coords": {
                "lat": 35.4735933,
                "lon": 51.7175737
            },
            "arrival_seconds": 2110.6194561875654,
            "temperature_celsius": 9,
            "arrival_time": "01:35"
        },
        {
            "place": "شهرک قائم",
            "type": "suburb",
            "coords": {
                "lat": 35.4747198,
                "lon": 51.7203705
            },
            "arrival_seconds": 2117.1836661025827,
            "temperature_celsius": 10,
            "arrival_time": "01:35"
        },
        {
            "place": "شهرک شهید نامجو",
            "type": "village",
            "coords": {
                "lat": 35.4719579,
                "lon": 51.7193305
            },
            "arrival_seconds": 2123.79713968575,
            "temperature_celsius": 10,
            "arrival_time": "01:35"
        },
        {
            "place": "حصار کلک",
            "type": "village",
            "coords": {
                "lat": 35.4519692,
                "lon": 51.7103351
            },
            "arrival_seconds": 2169.941987157432,
            "temperature_celsius": 8,
            "arrival_time": "01:36"
        },
        {
            "place": "گلزار بالا",
            "type": "village",
            "coords": {
                "lat": 35.4511632,
                "lon": 51.7111736
            },
            "arrival_seconds": 2176.389723846804,
            "temperature_celsius": 8,
            "arrival_time": "01:36"
        },
        {
            "place": "شهرک امام رضا",
            "type": "suburb",
            "coords": {
                "lat": 35.4678666,
                "lon": 51.7318875
            },
            "arrival_seconds": 2188.595137485985,
            "temperature_celsius": 8,
            "arrival_time": "01:36"
        },
        {
            "place": "آلوئک",
            "type": "village",
            "coords": {
                "lat": 35.4550599,
                "lon": 51.7235037
            },
            "arrival_seconds": 2206.652646686909,
            "temperature_celsius": 9,
            "arrival_time": "01:36"
        },
        {
            "place": "خسرو",
            "type": "village",
            "coords": {
                "lat": 35.4386575,
                "lon": 51.7452586
            },
            "arrival_seconds": 2355.163546518603,
            "temperature_celsius": 8,
            "arrival_time": "01:39"
        },
        {
            "place": "محمدآباد",
            "type": "village",
            "coords": {
                "lat": 35.4343269,
                "lon": 51.7525792
            },
            "arrival_seconds": 2400.3471052195114,
            "temperature_celsius": 9,
            "arrival_time": "01:40"
        },
        {
            "place": "شریف آباد",
            "type": "town",
            "coords": {
                "lat": 35.422537,
                "lon": 51.7902387
            },
            "arrival_seconds": 2591.4549613572276,
            "temperature_celsius": 10,
            "arrival_time": "01:43"
        },
        {
            "place": "عباس آباد ضرغام",
            "type": "village",
            "coords": {
                "lat": 35.4152685,
                "lon": 51.7957736
            },
            "arrival_seconds": 2641.3474696079415,
            "temperature_celsius": 10,
            "arrival_time": "01:44"
        },
        {
            "place": "قرمزتپه",
            "type": "village",
            "coords": {
                "lat": 35.3705254,
                "lon": 51.8776481
            },
            "arrival_seconds": 3133.521602391827,
            "temperature_celsius": 9,
            "arrival_time": "01:52"
        },
        {
            "place": "میدان شقایق",
            "type": "square",
            "coords": {
                "lat": 35.3612831,
                "lon": 51.9308097
            },
            "arrival_seconds": 3379.0737482993686,
            "temperature_celsius": 10,
            "arrival_time": "01:56"
        },
        {
            "place": "ایوان کِی",
            "type": "town",
            "coords": {
                "lat": 35.3441899,
                "lon": 52.069922
            },
            "arrival_seconds": 4014.68424086468,
            "temperature_celsius": 9,
            "arrival_time": "02:06"
        },
        {
            "place": "مسکن مهر",
            "type": "suburb",
            "coords": {
                "lat": 35.3363118,
                "lon": 52.0757196
            },
            "arrival_seconds": 4065.188309776469,
            "temperature_celsius": 8,
            "arrival_time": "02:07"
        },
        {
            "place": "شهر جدید ایوانکی",
            "type": "town",
            "coords": {
                "lat": 35.3464715,
                "lon": 52.0999153
            },
            "arrival_seconds": 4135.714209747064,
            "temperature_celsius": 9,
            "arrival_time": "02:08"
        },
        {
            "place": "سیالک",
            "type": "locality",
            "coords": {
                "lat": 35.2827344,
                "lon": 52.182502
            },
            "arrival_seconds": 4694.540070186068,
            "temperature_celsius": 11,
            "arrival_time": "02:18"
        },
        {
            "place": "میدان بنفشه",
            "type": "square",
            "coords": {
                "lat": 35.2508923,
                "lon": 52.2394131
            },
            "arrival_seconds": 5040.9552472498335,
            "temperature_celsius": 10,
            "arrival_time": "02:24"
        },
        {
            "place": "میدان ارکیده",
            "type": "square",
            "coords": {
                "lat": 35.2462982,
                "lon": 52.2388641
            },
            "arrival_seconds": 5053.9224222206385,
            "temperature_celsius": 10,
            "arrival_time": "02:24"
        },
        {
            "place": "میدان آزادی",
            "type": "square",
            "coords": {
                "lat": 35.2471844,
                "lon": 52.280667
            },
            "arrival_seconds": 5228.695763616837,
            "temperature_celsius": 10,
            "arrival_time": "02:27"
        },
        {
            "place": "فرور",
            "type": "village",
            "coords": {
                "lat": 35.2403108,
                "lon": 52.3396825
            },
            "arrival_seconds": 5504.7066996358635,
            "temperature_celsius": 10,
            "arrival_time": "02:31"
        },
        {
            "place": "کرند",
            "type": "village",
            "coords": {
                "lat": 35.2379398,
                "lon": 52.3467981
            },
            "arrival_seconds": 5542.936072651464,
            "temperature_celsius": 9,
            "arrival_time": "02:32"
        },
        {
            "place": "میدان دانشگاه",
            "type": "square",
            "coords": {
                "lat": 35.2353261,
                "lon": 52.3750636
            },
            "arrival_seconds": 5673.944703055193,
            "temperature_celsius": 9,
            "arrival_time": "02:34"
        },
        {
            "place": "حاجی آباداتشگاه",
            "type": "village",
            "coords": {
                "lat": 35.2436479,
                "lon": 52.4026233
            },
            "arrival_seconds": 5769.831603745521,
            "temperature_celsius": 9,
            "arrival_time": "02:36"
        },
        {
            "place": "محله باغ جدید",
            "type": "village",
            "coords": {
                "lat": 35.2386241,
                "lon": 52.4006027
            },
            "arrival_seconds": 5775.838802021858,
            "temperature_celsius": 9,
            "arrival_time": "02:36"
        },
        {
            "place": "ملیجان بالا",
            "type": "village",
            "coords": {
                "lat": 35.2396842,
                "lon": 52.4047267
            },
            "arrival_seconds": 5790.829437805946,
            "temperature_celsius": 9,
            "arrival_time": "02:36"
        },
        {
            "place": "جلیل آباد",
            "type": "village",
            "coords": {
                "lat": 35.2678723,
                "lon": 52.4852508
            },
            "arrival_seconds": 6071.451149917901,
            "temperature_celsius": 7,
            "arrival_time": "02:41"
        },
        {
            "place": "ده نمک",
            "type": "village",
            "coords": {
                "lat": 35.2536419,
                "lon": 52.7328054
            },
            "arrival_seconds": 7245.02421140485,
            "temperature_celsius": 7,
            "arrival_time": "03:00"
        },
        {
            "place": "محل دپو مصالح اساس",
            "type": "locality",
            "coords": {
                "lat": 35.3201166,
                "lon": 53.0268924
            },
            "arrival_seconds": 8509.9784717204,
            "temperature_celsius": 8,
            "arrival_time": "03:21"
        },
        {
            "place": "محل دپو مصالح بتن",
            "type": "locality",
            "coords": {
                "lat": 35.3194118,
                "lon": 53.0271021
            },
            "arrival_seconds": 8512.183691526507,
            "temperature_celsius": 8,
            "arrival_time": "03:21"
        },
        {
            "place": "محل دپو مصالح آسفالت",
            "type": "locality",
            "coords": {
                "lat": 35.3184056,
                "lon": 53.0271321
            },
            "arrival_seconds": 8514.035100888626,
            "temperature_celsius": 8,
            "arrival_time": "03:21"
        },
        {
            "place": "بچینگ بتن",
            "type": "locality",
            "coords": {
                "lat": 35.3191511,
                "lon": 53.0277162
            },
            "arrival_seconds": 8515.5893955226,
            "temperature_celsius": 8,
            "arrival_time": "03:21"
        },
        {
            "place": "کارخانه آسفالت",
            "type": "locality",
            "coords": {
                "lat": 35.3187926,
                "lon": 53.0281156
            },
            "arrival_seconds": 8518.124762469011,
            "temperature_celsius": 8,
            "arrival_time": "03:21"
        },
        {
            "place": "سید اباد",
            "type": "hamlet",
            "coords": {
                "lat": 35.3670406,
                "lon": 53.0669716
            },
            "arrival_seconds": 8630.383789928977,
            "temperature_celsius": 8,
            "arrival_time": "03:23"
        },
        {
            "place": "لاسجرد",
            "type": "village",
            "coords": {
                "lat": 35.4066422,
                "lon": 53.0855875
            },
            "arrival_seconds": 8666.939810988497,
            "temperature_celsius": 8,
            "arrival_time": "03:24"
        },
        {
            "place": "سرخه",
            "type": "town",
            "coords": {
                "lat": 35.4638851,
                "lon": 53.2135038
            },
            "arrival_seconds": 9232.554276290071,
            "temperature_celsius": 7,
            "arrival_time": "03:33"
        },
        {
            "place": "محل آزمون دور بیابانی گواهینامه پایه یک و دو",
            "type": "locality",
            "coords": {
                "lat": 35.5475288,
                "lon": 53.3382784
            },
            "arrival_seconds": 9786.085284514245,
            "temperature_celsius": 8,
            "arrival_time": "03:43"
        },
        {
            "place": "محل آزمون دور دوفرمان گواهینامه پایه یک و دو",
            "type": "locality",
            "coords": {
                "lat": 35.5460239,
                "lon": 53.3393633
            },
            "arrival_seconds": 9792.410435868198,
            "temperature_celsius": 8,
            "arrival_time": "03:43"
        },
        {
            "place": "محل آزمون رانددگی گواهینامه پایه دوم و پایه یک",
            "type": "locality",
            "coords": {
                "lat": 35.5484416,
                "lon": 53.3443808
            },
            "arrival_seconds": 9815.934146550371,
            "temperature_celsius": 6,
            "arrival_time": "03:43"
        },
        {
            "place": "شهرک خدماتی غرب",
            "type": "neighbourhood",
            "coords": {
                "lat": 35.5586911,
                "lon": 53.3523664
            },
            "arrival_seconds": 9849.750503935442,
            "temperature_celsius": 6,
            "arrival_time": "03:44"
        },
        {
            "place": "منطقه تعمیر گاه های خودرو",
            "type": "locality",
            "coords": {
                "lat": 35.5716329,
                "lon": 53.3597634
            },
            "arrival_seconds": 9879.676693597412,
            "temperature_celsius": 6,
            "arrival_time": "03:44"
        },
        {
            "place": "شهرک کوهسار",
            "type": "neighbourhood",
            "coords": {
                "lat": 35.6000287,
                "lon": 53.3627307
            },
            "arrival_seconds": 9881.48393353164,
            "temperature_celsius": 8,
            "arrival_time": "03:44"
        },
        {
            "place": "شهرک جانبازان",
            "type": "neighbourhood",
            "coords": {
                "lat": 35.5791504,
                "lon": 53.3640343
            },
            "arrival_seconds": 9897.241802366685,
            "temperature_celsius": 6,
            "arrival_time": "03:44"
        },
        {
            "place": "شهرک روزیه",
            "type": "suburb",
            "coords": {
                "lat": 35.6055666,
                "lon": 53.3666492
            },
            "arrival_seconds": 9898.873811030802,
            "temperature_celsius": 7,
            "arrival_time": "03:44"
        },
        {
            "place": "شهرک روزیه",
            "type": "neighbourhood",
            "coords": {
                "lat": 35.6068717,
                "lon": 53.3670651
            },
            "arrival_seconds": 9900.455472045966,
            "temperature_celsius": 7,
            "arrival_time": "03:45"
        },
        {
            "place": "مجتمع مسکونی چهارصد دستگاه",
            "type": "neighbourhood",
            "coords": {
                "lat": 35.5755256,
                "lon": 53.3646995
            },
            "arrival_seconds": 9902.334911498469,
            "temperature_celsius": 6,
            "arrival_time": "03:45"
        },
        {
            "place": "شهرک پامچال",
            "type": "neighbourhood",
            "coords": {
                "lat": 35.5817594,
                "lon": 53.3655417
            },
            "arrival_seconds": 9903.516443613722,
            "temperature_celsius": 6,
            "arrival_time": "03:45"
        },
        {
            "place": "مجتمع پونه",
            "type": "neighbourhood",
            "coords": {
                "lat": 35.6004387,
                "lon": 53.3683124
            },
            "arrival_seconds": 9909.185337897421,
            "temperature_celsius": 8,
            "arrival_time": "03:45"
        },
        {
            "place": "محله زاوقان",
            "type": "neighbourhood",
            "coords": {
                "lat": 35.5626188,
                "lon": 53.3656925
            },
            "arrival_seconds": 9914.008853949545,
            "temperature_celsius": 6,
            "arrival_time": "03:45"
        },
        {
            "place": "شهرک گلستان",
            "type": "neighbourhood",
            "coords": {
                "lat": 35.5937843,
                "lon": 53.3699689
            },
            "arrival_seconds": 9920.207192347452,
            "temperature_celsius": 8,
            "arrival_time": "03:45"
        },
        {
            "place": "پل جهاد",
            "type": "locality",
            "coords": {
                "lat": 35.6043983,
                "lon": 53.3712889
            },
            "arrival_seconds": 9922.488697362905,
            "temperature_celsius": 8,
            "arrival_time": "03:45"
        },
        {
            "place": "میدان امام علی",
            "type": "locality",
            "coords": {
                "lat": 35.5812595,
                "lon": 53.3734705
            },
            "arrival_seconds": 9943.313756592883,
            "temperature_celsius": 6,
            "arrival_time": "03:45"
        },
        {
            "place": "میدان الغدیر",
            "type": "locality",
            "coords": {
                "lat": 35.590814,
                "lon": 53.3762344
            },
            "arrival_seconds": 9952.761567159185,
            "temperature_celsius": 6,
            "arrival_time": "03:45"
        },
        {
            "place": "شهرک انقلاب",
            "type": "neighbourhood",
            "coords": {
                "lat": 35.5798805,
                "lon": 53.3760394
            },
            "arrival_seconds": 9956.786724561282,
            "temperature_celsius": 6,
            "arrival_time": "03:45"
        },
        {
            "place": "شهرک جمهوری",
            "type": "neighbourhood",
            "coords": {
                "lat": 35.5835333,
                "lon": 53.3790818
            },
            "arrival_seconds": 9970.247964190004,
            "temperature_celsius": 6,
            "arrival_time": "03:46"
        },
        {
            "place": "کوی رضوان",
            "type": "neighbourhood",
            "coords": {
                "lat": 35.5815775,
                "lon": 53.3811247
            },
            "arrival_seconds": 9981.355079717074,
            "temperature_celsius": 6,
            "arrival_time": "03:46"
        },
        {
            "place": "شهرک مدیران",
            "type": "neighbourhood",
            "coords": {
                "lat": 35.5942185,
                "lon": 53.3868067
            },
            "arrival_seconds": 10004.071356896122,
            "temperature_celsius": 7,
            "arrival_time": "03:46"
        },
        {
            "place": "شهرک مهر مدیران",
            "type": "neighbourhood",
            "coords": {
                "lat": 35.6038845,
                "lon": 53.3884551
            },
            "arrival_seconds": 10008.398957645688,
            "temperature_celsius": 7,
            "arrival_time": "03:46"
        },
        {
            "place": "منازل‌سازمانی تیپ ۱۲ قائم آل محمد ص سمنان",
            "type": "neighbourhood",
            "coords": {
                "lat": 35.6121711,
                "lon": 53.3932757
            },
            "arrival_seconds": 10029.409702864916,
            "temperature_celsius": 7,
            "arrival_time": "03:47"
        },
        {
            "place": "شهرک دهخدا",
            "type": "neighbourhood",
            "coords": {
                "lat": 35.5932725,
                "lon": 53.3921357
            },
            "arrival_seconds": 10031.072636373128,
            "temperature_celsius": 6,
            "arrival_time": "03:47"
        },
        {
            "place": "شهرک تعاون",
            "type": "neighbourhood",
            "coords": {
                "lat": 35.5879053,
                "lon": 53.3953844
            },
            "arrival_seconds": 10049.620237905916,
            "temperature_celsius": 6,
            "arrival_time": "03:47"
        },
        {
            "place": "شهرک اتحاد",
            "type": "neighbourhood",
            "coords": {
                "lat": 35.5952032,
                "lon": 53.3985734
            },
            "arrival_seconds": 10062.396292112491,
            "temperature_celsius": 7,
            "arrival_time": "03:47"
        },
        {
            "place": "شهرک فرهنگیان",
            "type": "neighbourhood",
            "coords": {
                "lat": 35.5916777,
                "lon": 53.4007298
            },
            "arrival_seconds": 10074.651822753869,
            "temperature_celsius": 6,
            "arrival_time": "03:47"
        },
        {
            "place": "شهرک الهیه",
            "type": "neighbourhood",
            "coords": {
                "lat": 35.5920734,
                "lon": 53.4054989
            },
            "arrival_seconds": 10098.287450009127,
            "temperature_celsius": 6,
            "arrival_time": "03:48"
        },
        {
            "place": "شهرک پیامبر اعظم",
            "type": "neighbourhood",
            "coords": {
                "lat": 35.59886,
                "lon": 53.407899
            },
            "arrival_seconds": 10107.456375468766,
            "temperature_celsius": 8,
            "arrival_time": "03:48"
        },
        {
            "place": "شهرک پیامبر اعظم",
            "type": "neighbourhood",
            "coords": {
                "lat": 35.5921536,
                "lon": 53.4091323
            },
            "arrival_seconds": 10116.389716734917,
            "temperature_celsius": 6,
            "arrival_time": "03:48"
        },
        {
            "place": "قوشه",
            "type": "village",
            "coords": {
                "lat": 35.961213,
                "lon": 54.0387654
            },
            "arrival_seconds": 13321.894139804075,
            "temperature_celsius": 4,
            "arrival_time": "04:42"
        },
        {
            "place": "صید آباد",
            "type": "village",
            "coords": {
                "lat": 36.053249,
                "lon": 54.1489915
            },
            "arrival_seconds": 13939.343530429613,
            "temperature_celsius": 6,
            "arrival_time": "04:52"
        },
        {
            "place": "حجاجی",
            "type": "village",
            "coords": {
                "lat": 36.0633404,
                "lon": 54.1743871
            },
            "arrival_seconds": 14073.472435552303,
            "temperature_celsius": 4,
            "arrival_time": "04:54"
        },
        {
            "place": "دولت آباد",
            "type": "village",
            "coords": {
                "lat": 36.0727641,
                "lon": 54.1802645
            },
            "arrival_seconds": 14111.140666883066,
            "temperature_celsius": 4,
            "arrival_time": "04:55"
        },
        {
            "place": "بخش آباد",
            "type": "village",
            "coords": {
                "lat": 36.0855968,
                "lon": 54.1817727
            },
            "arrival_seconds": 14130.85022252815,
            "temperature_celsius": 4,
            "arrival_time": "04:55"
        },
        {
            "place": "شیر آشیان",
            "type": "village",
            "coords": {
                "lat": 36.090543,
                "lon": 54.189688
            },
            "arrival_seconds": 14174.553241240308,
            "temperature_celsius": 4,
            "arrival_time": "04:56"
        },
        {
            "place": "مسکن مهر",
            "type": "neighbourhood",
            "coords": {
                "lat": 36.1617703,
                "lon": 54.3166991
            },
            "arrival_seconds": 14871.298502256215,
            "temperature_celsius": 7,
            "arrival_time": "05:07"
        },
        {
            "place": "کوی اساتید دانشگاه دامغان",
            "type": "neighbourhood",
            "coords": {
                "lat": 36.1701203,
                "lon": 54.3191721
            },
            "arrival_seconds": 14892.74482476251,
            "temperature_celsius": 7,
            "arrival_time": "05:08"
        },
        {
            "place": "میدان جانباز",
            "type": "locality",
            "coords": {
                "lat": 36.1814224,
                "lon": 54.340828
            },
            "arrival_seconds": 15011.335820499082,
            "temperature_celsius": 7,
            "arrival_time": "05:10"
        },
        {
            "place": "ابوالبق",
            "type": "village",
            "coords": {
                "lat": 36.2192863,
                "lon": 54.3811354
            },
            "arrival_seconds": 15252.649090625519,
            "temperature_celsius": 8,
            "arrival_time": "05:14"
        },
        {
            "place": "حاجی آباد بستیجان",
            "type": "village",
            "coords": {
                "lat": 36.1980811,
                "lon": 54.4093767
            },
            "arrival_seconds": 15364.940898183673,
            "temperature_celsius": 6,
            "arrival_time": "05:16"
        },
        {
            "place": "نعیم آباد",
            "type": "village",
            "coords": {
                "lat": 36.2500128,
                "lon": 54.618405
            },
            "arrival_seconds": 16444.47117018067,
            "temperature_celsius": 7,
            "arrival_time": "05:34"
        },
        {
            "place": "قادر آباد",
            "type": "village",
            "coords": {
                "lat": 36.2624923,
                "lon": 54.6396986
            },
            "arrival_seconds": 16563.075357041187,
            "temperature_celsius": 7,
            "arrival_time": "05:36"
        },
        {
            "place": "مومن آباد",
            "type": "village",
            "coords": {
                "lat": 36.2583519,
                "lon": 54.6762242
            },
            "arrival_seconds": 16735.875485314806,
            "temperature_celsius": 6,
            "arrival_time": "05:38"
        },
        {
            "place": "دهملا",
            "type": "village",
            "coords": {
                "lat": 36.2742675,
                "lon": 54.7591659
            },
            "arrival_seconds": 17158.523404109463,
            "temperature_celsius": 6,
            "arrival_time": "05:45"
        },
        {
            "place": "میدان مرکزی اردیان",
            "type": "locality",
            "coords": {
                "lat": 36.3784381,
                "lon": 54.9658475
            },
            "arrival_seconds": 18292.124174667708,
            "temperature_celsius": 9,
            "arrival_time": "06:04"
        },
        {
            "place": "اردیان",
            "type": "village",
            "coords": {
                "lat": 36.3787778,
                "lon": 54.9664799
            },
            "arrival_seconds": 18295.631661138064,
            "temperature_celsius": 9,
            "arrival_time": "06:04"
        },
        {
            "place": "یونس آباد",
            "type": "village",
            "coords": {
                "lat": 36.3504226,
                "lon": 54.9772942
            },
            "arrival_seconds": 18311.566476399403,
            "temperature_celsius": 9,
            "arrival_time": "06:05"
        },
        {
            "place": "شهرک نوین",
            "type": "village",
            "coords": {
                "lat": 36.370904,
                "lon": 54.971959
            },
            "arrival_seconds": 18311.863145334755,
            "temperature_celsius": 9,
            "arrival_time": "06:05"
        },
        {
            "place": "میدان ولایت",
            "type": "locality",
            "coords": {
                "lat": 36.4040806,
                "lon": 54.9956571
            },
            "arrival_seconds": 18470.490525590038,
            "temperature_celsius": 9,
            "arrival_time": "06:07"
        },
        {
            "place": "شهرک ولیعصر",
            "type": "neighbourhood",
            "coords": {
                "lat": 36.4127955,
                "lon": 55.00126
            },
            "arrival_seconds": 18509.411338657297,
            "temperature_celsius": 9,
            "arrival_time": "06:08"
        },
        {
            "place": "شهرک امام خمینی",
            "type": "neighbourhood",
            "coords": {
                "lat": 36.4088669,
                "lon": 55.6432843
            },
            "arrival_seconds": 21618.108288776413,
            "temperature_celsius": 10,
            "arrival_time": "07:00"
        },
        {
            "place": "میامی",
            "type": "town",
            "coords": {
                "lat": 36.4086479,
                "lon": 55.6545685
            },
            "arrival_seconds": 21672.79909367203,
            "temperature_celsius": 10,
            "arrival_time": "07:01"
        },
        {
            "place": "شهرک گلها",
            "type": "neighbourhood",
            "coords": {
                "lat": 36.4033406,
                "lon": 55.661298
            },
            "arrival_seconds": 21699.635401208332,
            "temperature_celsius": 10,
            "arrival_time": "07:01"
        },
        {
            "place": "ابراهیم آباد",
            "type": "village",
            "coords": {
                "lat": 36.4209174,
                "lon": 55.7181325
            },
            "arrival_seconds": 21996.045963151002,
            "temperature_celsius": 10,
            "arrival_time": "07:06"
        },
        {
            "place": "ابراهیم آبادعلیا",
            "type": "village",
            "coords": {
                "lat": 36.4149715,
                "lon": 55.7229958
            },
            "arrival_seconds": 22013.073246837204,
            "temperature_celsius": 11,
            "arrival_time": "07:06"
        },
        {
            "place": "عباس آباد",
            "type": "village",
            "coords": {
                "lat": 36.3611831,
                "lon": 56.3868342
            },
            "arrival_seconds": 25206.757633779624,
            "temperature_celsius": 16,
            "arrival_time": "08:00"
        },
        {
            "place": "عباس آباد",
            "type": "village",
            "coords": {
                "lat": 36.3623705,
                "lon": 56.3903371
            },
            "arrival_seconds": 25224.960064558993,
            "temperature_celsius": 16,
            "arrival_time": "08:00"
        },
        {
            "place": "داورزن",
            "type": "town",
            "coords": {
                "lat": 36.3512877,
                "lon": 56.8762448
            },
            "arrival_seconds": 27603.934495533063,
            "temperature_celsius": 16,
            "arrival_time": "08:40"
        },
        {
            "place": "شهرک امام علی",
            "type": "suburb",
            "coords": {
                "lat": 36.3490875,
                "lon": 56.8888892
            },
            "arrival_seconds": 27664.54002578396,
            "temperature_celsius": 16,
            "arrival_time": "08:41"
        },
        {
            "place": "صدخرو",
            "type": "village",
            "coords": {
                "lat": 36.3075666,
                "lon": 57.0739141
            },
            "arrival_seconds": 28547.59329107818,
            "temperature_celsius": 16,
            "arrival_time": "08:55"
        },
        {
            "place": "کوشک باغ",
            "type": "village",
            "coords": {
                "lat": 36.2745288,
                "lon": 57.1317499
            },
            "arrival_seconds": 28812.697763040134,
            "temperature_celsius": 17,
            "arrival_time": "09:00"
        },
        {
            "place": "مهر",
            "type": "village",
            "coords": {
                "lat": 36.2919136,
                "lon": 57.1487478
            },
            "arrival_seconds": 28907.007091494866,
            "temperature_celsius": 17,
            "arrival_time": "09:01"
        },
        {
            "place": "ریوند",
            "type": "village",
            "coords": {
                "lat": 36.2312341,
                "lon": 57.3370247
            },
            "arrival_seconds": 29803.717739406515,
            "temperature_celsius": 17,
            "arrival_time": "09:16"
        },
        {
            "place": "استیر",
            "type": "village",
            "coords": {
                "lat": 36.2141821,
                "lon": 57.5000643
            },
            "arrival_seconds": 30602.418747398562,
            "temperature_celsius": 17,
            "arrival_time": "09:30"
        },
        {
            "place": "میدان مشاهیر",
            "type": "locality",
            "coords": {
                "lat": 36.2077436,
                "lon": 57.6069852
            },
            "arrival_seconds": 31128.98462504065,
            "temperature_celsius": 17,
            "arrival_time": "09:38"
        },
        {
            "place": "ابارش",
            "type": "village",
            "coords": {
                "lat": 36.2163841,
                "lon": 57.6158943
            },
            "arrival_seconds": 31176.896609423893,
            "temperature_celsius": 17,
            "arrival_time": "09:39"
        },
        {
            "place": "کلاته سیفر",
            "type": "village",
            "coords": {
                "lat": 36.2042554,
                "lon": 57.6464316
            },
            "arrival_seconds": 31322.858262649843,
            "temperature_celsius": 17,
            "arrival_time": "09:42"
        },
        {
            "place": "پارک سی هزار متری",
            "type": "locality",
            "coords": {
                "lat": 36.2093403,
                "lon": 57.6632443
            },
            "arrival_seconds": 31408.30296268038,
            "temperature_celsius": 17,
            "arrival_time": "09:43"
        },
        {
            "place": "( ناوی ( امام خمینی",
            "type": "neighbourhood",
            "coords": {
                "lat": 36.2051626,
                "lon": 57.667196
            },
            "arrival_seconds": 31426.094761973327,
            "temperature_celsius": 17,
            "arrival_time": "09:43"
        },
        {
            "place": "میدان هویزه  میدان انقلاب",
            "type": "locality",
            "coords": {
                "lat": 36.2163895,
                "lon": 57.667051
            },
            "arrival_seconds": 31430.20716646676,
            "temperature_celsius": 17,
            "arrival_time": "09:43"
        },
        {
            "place": "بیهق غربی",
            "type": "neighbourhood",
            "coords": {
                "lat": 36.20886,
                "lon": 57.6697942
            },
            "arrival_seconds": 31440.537322802007,
            "temperature_celsius": 17,
            "arrival_time": "09:44"
        },
        {
            "place": "میدان مادر",
            "type": "locality",
            "coords": {
                "lat": 36.2124878,
                "lon": 57.6695798
            },
            "arrival_seconds": 31441.034740082236,
            "temperature_celsius": 17,
            "arrival_time": "09:44"
        },
        {
            "place": "میدان هفت تیر",
            "type": "locality",
            "coords": {
                "lat": 36.1960488,
                "lon": 57.6720057
            },
            "arrival_seconds": 31446.113882291553,
            "temperature_celsius": 17,
            "arrival_time": "09:44"
        },
        {
            "place": "یزد آباد",
            "type": "village",
            "coords": {
                "lat": 36.1788834,
                "lon": 57.6763776
            },
            "arrival_seconds": 31460.887553078548,
            "temperature_celsius": 17,
            "arrival_time": "09:44"
        },
        {
            "place": "( طبرسی ( جعفرآباد",
            "type": "neighbourhood",
            "coords": {
                "lat": 36.2002219,
                "lon": 57.6789915
            },
            "arrival_seconds": 31482.451202956832,
            "temperature_celsius": 17,
            "arrival_time": "09:44"
        },
        {
            "place": "بیهق شرقی",
            "type": "neighbourhood",
            "coords": {
                "lat": 36.2074063,
                "lon": 57.679367
            },
            "arrival_seconds": 31487.3314197394,
            "temperature_celsius": 17,
            "arrival_time": "09:44"
        },
        {
            "place": "میدان ارشاد اسلامی",
            "type": "locality",
            "coords": {
                "lat": 36.201509,
                "lon": 57.6846917
            },
            "arrival_seconds": 31511.22574259954,
            "temperature_celsius": 17,
            "arrival_time": "09:45"
        },
        {
            "place": "صالح آباد",
            "type": "suburb",
            "coords": {
                "lat": 36.1898626,
                "lon": 57.6967534
            },
            "arrival_seconds": 31566.221651816435,
            "temperature_celsius": 17,
            "arrival_time": "09:46"
        },
        {
            "place": "دلقند",
            "type": "village",
            "coords": {
                "lat": 36.1927875,
                "lon": 57.7468099
            },
            "arrival_seconds": 31815.443063123006,
            "temperature_celsius": 17,
            "arrival_time": "09:50"
        },
        {
            "place": "باغان",
            "type": "village",
            "coords": {
                "lat": 36.1900696,
                "lon": 57.7638816
            },
            "arrival_seconds": 31898.967805006792,
            "temperature_celsius": 17,
            "arrival_time": "09:51"
        },
        {
            "place": "آزاد منجیر",
            "type": "village",
            "coords": {
                "lat": 36.1958199,
                "lon": 57.7979861
            },
            "arrival_seconds": 32070.24543735814,
            "temperature_celsius": 16,
            "arrival_time": "09:54"
        },
        {
            "place": "زیدآباد",
            "type": "village",
            "coords": {
                "lat": 36.19632,
                "lon": 57.860713
            },
            "arrival_seconds": 32381.28668551268,
            "temperature_celsius": 16,
            "arrival_time": "09:59"
        },
        {
            "place": "هاشم آباد",
            "type": "village",
            "coords": {
                "lat": 36.1656521,
                "lon": 57.9736538
            },
            "arrival_seconds": 32930.06215734043,
            "temperature_celsius": 17,
            "arrival_time": "10:08"
        },
        {
            "place": "زعفرانیه",
            "type": "village",
            "coords": {
                "lat": 36.1647325,
                "lon": 58.0849346
            },
            "arrival_seconds": 33481.74209733422,
            "temperature_celsius": 17,
            "arrival_time": "10:18"
        },
        {
            "place": "حسن آبادسالار",
            "type": "village",
            "coords": {
                "lat": 36.1266643,
                "lon": 58.516242
            },
            "arrival_seconds": 35611.80123198643,
            "temperature_celsius": 16,
            "arrival_time": "10:53"
        },
        {
            "place": "کفکی",
            "type": "village",
            "coords": {
                "lat": 36.1144466,
                "lon": 58.5233239
            },
            "arrival_seconds": 35644.12553401052,
            "temperature_celsius": 16,
            "arrival_time": "10:54"
        },
        {
            "place": "همت آباد زمانی",
            "type": "village",
            "coords": {
                "lat": 36.1354686,
                "lon": 58.5250301
            },
            "arrival_seconds": 35657.5925996094,
            "temperature_celsius": 16,
            "arrival_time": "10:54"
        },
        {
            "place": "کلاته زمان آباد",
            "type": "village",
            "coords": {
                "lat": 36.1449657,
                "lon": 58.5326125
            },
            "arrival_seconds": 35697.64356044088,
            "temperature_celsius": 16,
            "arrival_time": "10:54"
        },
        {
            "place": "روح آباد ریوند",
            "type": "village",
            "coords": {
                "lat": 36.2052835,
                "lon": 58.7217159
            },
            "arrival_seconds": 36652.8182490735,
            "temperature_celsius": 17,
            "arrival_time": "11:10"
        },
        {
            "place": "مظفرآباد",
            "type": "village",
            "coords": {
                "lat": 36.1995628,
                "lon": 58.7273771
            },
            "arrival_seconds": 36679.18857305443,
            "temperature_celsius": 17,
            "arrival_time": "11:11"
        },
        {
            "place": "ده داروغه",
            "type": "village",
            "coords": {
                "lat": 36.2039833,
                "lon": 58.7311342
            },
            "arrival_seconds": 36699.13484640558,
            "temperature_celsius": 16,
            "arrival_time": "11:11"
        },
        {
            "place": "منظر",
            "type": "village",
            "coords": {
                "lat": 36.2176874,
                "lon": 58.7343689
            },
            "arrival_seconds": 36719.36712399291,
            "temperature_celsius": 16,
            "arrival_time": "11:11"
        },
        {
            "place": "نقاب",
            "type": "village",
            "coords": {
                "lat": 36.2337853,
                "lon": 58.739052
            },
            "arrival_seconds": 36747.74553878358,
            "temperature_celsius": 16,
            "arrival_time": "11:12"
        },
        {
            "place": "دولت آباد",
            "type": "village",
            "coords": {
                "lat": 36.225234,
                "lon": 58.7411784
            },
            "arrival_seconds": 36755.51202865961,
            "temperature_celsius": 16,
            "arrival_time": "11:12"
        },
        {
            "place": "روستای هلالی",
            "type": "village",
            "coords": {
                "lat": 36.2003591,
                "lon": 58.7508602
            },
            "arrival_seconds": 36795.89212904139,
            "temperature_celsius": 16,
            "arrival_time": "11:13"
        },
        {
            "place": "شهرک فیض آباد",
            "type": "village",
            "coords": {
                "lat": 36.2218068,
                "lon": 58.7505894
            },
            "arrival_seconds": 36801.07658789026,
            "temperature_celsius": 16,
            "arrival_time": "11:13"
        },
        {
            "place": "سه چوب",
            "type": "village",
            "coords": {
                "lat": 36.2354568,
                "lon": 58.7515486
            },
            "arrival_seconds": 36810.229667767715,
            "temperature_celsius": 16,
            "arrival_time": "11:13"
        },
        {
            "place": "شهرک زرنده",
            "type": "neighbourhood",
            "coords": {
                "lat": 36.2238363,
                "lon": 58.7535145
            },
            "arrival_seconds": 36816.219128996396,
            "temperature_celsius": 16,
            "arrival_time": "11:13"
        },
        {
            "place": "سنگونی",
            "type": "village",
            "coords": {
                "lat": 36.2338472,
                "lon": 58.7545527
            },
            "arrival_seconds": 36824.59010907272,
            "temperature_celsius": 16,
            "arrival_time": "11:13"
        },
        {
            "place": "شهرک اردسمان",
            "type": "village",
            "coords": {
                "lat": 36.2049099,
                "lon": 58.7595032
            },
            "arrival_seconds": 36840.1006085147,
            "temperature_celsius": 16,
            "arrival_time": "11:14"
        },
        {
            "place": "روستای چنبران",
            "type": "village",
            "coords": {
                "lat": 36.1961525,
                "lon": 58.760463
            },
            "arrival_seconds": 36842.298624437804,
            "temperature_celsius": 16,
            "arrival_time": "11:14"
        },
        {
            "place": "شهرک حلاج",
            "type": "village",
            "coords": {
                "lat": 36.2245066,
                "lon": 58.7589986
            },
            "arrival_seconds": 36843.61776700565,
            "temperature_celsius": 16,
            "arrival_time": "11:14"
        },
        {
            "place": "باغات دستگردان",
            "type": "village",
            "coords": {
                "lat": 36.1921956,
                "lon": 58.7647792
            },
            "arrival_seconds": 36862.57767623242,
            "temperature_celsius": 16,
            "arrival_time": "11:14"
        },
        {
            "place": "سرآب چمبران",
            "type": "village",
            "coords": {
                "lat": 36.1938281,
                "lon": 58.7648392
            },
            "arrival_seconds": 36863.339619715865,
            "temperature_celsius": 16,
            "arrival_time": "11:14"
        },
        {
            "place": "پیچ عیدیانی",
            "type": "square",
            "coords": {
                "lat": 36.2117236,
                "lon": 58.7653027
            },
            "arrival_seconds": 36870.906079797445,
            "temperature_celsius": 16,
            "arrival_time": "11:14"
        },
        {
            "place": "شهرک بهشتی",
            "type": "neighbourhood",
            "coords": {
                "lat": 36.215027,
                "lon": 58.767371
            },
            "arrival_seconds": 36882.169295432446,
            "temperature_celsius": 16,
            "arrival_time": "11:14"
        },
        {
            "place": "فرخ آباد",
            "type": "village",
            "coords": {
                "lat": 36.1862576,
                "lon": 58.770092
            },
            "arrival_seconds": 36887.26965460132,
            "temperature_celsius": 16,
            "arrival_time": "11:14"
        },
        {
            "place": "شهرک کریم آباد",
            "type": "village",
            "coords": {
                "lat": 36.2060387,
                "lon": 58.7692989
            },
            "arrival_seconds": 36889.015308763504,
            "temperature_celsius": 16,
            "arrival_time": "11:14"
        },
        {
            "place": "شهرک سرآب کوشک",
            "type": "village",
            "coords": {
                "lat": 36.2204542,
                "lon": 58.7702167
            },
            "arrival_seconds": 36897.95656269484,
            "temperature_celsius": 16,
            "arrival_time": "11:14"
        },
        {
            "place": "روستای رحیم آباد",
            "type": "village",
            "coords": {
                "lat": 36.1901799,
                "lon": 58.7737325
            },
            "arrival_seconds": 36906.42384716367,
            "temperature_celsius": 16,
            "arrival_time": "11:15"
        },
        {
            "place": "روستای رنج آباد",
            "type": "village",
            "coords": {
                "lat": 36.2276628,
                "lon": 58.7732973
            },
            "arrival_seconds": 36915.501534860996,
            "temperature_celsius": 16,
            "arrival_time": "11:15"
        },
        {
            "place": "فلکه صنعت",
            "type": "square",
            "coords": {
                "lat": 36.2048502,
                "lon": 58.7756129
            },
            "arrival_seconds": 36919.976000417664,
            "temperature_celsius": 16,
            "arrival_time": "11:15"
        },
        {
            "place": "شهرک رحمت آباد",
            "type": "village",
            "coords": {
                "lat": 36.1954508,
                "lon": 58.7762807
            },
            "arrival_seconds": 36920.55702027719,
            "temperature_celsius": 16,
            "arrival_time": "11:15"
        },
        {
            "place": "بنیاد شهید",
            "type": "neighbourhood",
            "coords": {
                "lat": 36.2100077,
                "lon": 58.7796076
            },
            "arrival_seconds": 36941.322066886096,
            "temperature_celsius": 16,
            "arrival_time": "11:15"
        },
        {
            "place": "شهرک حصار",
            "type": "village",
            "coords": {
                "lat": 36.1914094,
                "lon": 58.7824802
            },
            "arrival_seconds": 36950.16462730641,
            "temperature_celsius": 17,
            "arrival_time": "11:15"
        },
        {
            "place": "سمنو",
            "type": "neighbourhood",
            "coords": {
                "lat": 36.1948931,
                "lon": 58.7823969
            },
            "arrival_seconds": 36950.73651103842,
            "temperature_celsius": 16,
            "arrival_time": "11:15"
        },
        {
            "place": "شهرک رسولی",
            "type": "village",
            "coords": {
                "lat": 36.2201825,
                "lon": 58.7831521
            },
            "arrival_seconds": 36962.00249308786,
            "temperature_celsius": 16,
            "arrival_time": "11:16"
        },
        {
            "place": "خط کاشمر",
            "type": "neighbourhood",
            "coords": {
                "lat": 36.1941675,
                "lon": 58.7879792
            },
            "arrival_seconds": 36978.22118421833,
            "temperature_celsius": 16,
            "arrival_time": "11:16"
        },
        {
            "place": "سه راه هفده شهریور",
            "type": "locality",
            "coords": {
                "lat": 36.2128747,
                "lon": 58.7870394
            },
            "arrival_seconds": 36979.03799856917,
            "temperature_celsius": 16,
            "arrival_time": "11:16"
        },
        {
            "place": "چهارراه شریعتی",
            "type": "locality",
            "coords": {
                "lat": 36.206648,
                "lon": 58.7875365
            },
            "arrival_seconds": 36979.64009189915,
            "temperature_celsius": 16,
            "arrival_time": "11:16"
        },
        {
            "place": "میدان بعثت",
            "type": "locality",
            "coords": {
                "lat": 36.2175178,
                "lon": 58.7871311
            },
            "arrival_seconds": 36980.90762725519,
            "temperature_celsius": 16,
            "arrival_time": "11:16"
        },
        {
            "place": "خیابان شهید جعفری",
            "type": "neighbourhood",
            "coords": {
                "lat": 36.2009117,
                "lon": 58.7896908
            },
            "arrival_seconds": 36988.643820057056,
            "temperature_celsius": 16,
            "arrival_time": "11:16"
        },
        {
            "place": "روستای بکاول",
            "type": "village",
            "coords": {
                "lat": 36.1845517,
                "lon": 58.7908084
            },
            "arrival_seconds": 36989.58155737822,
            "temperature_celsius": 17,
            "arrival_time": "11:16"
        },
        {
            "place": "چهارراه شریعتی",
            "type": "locality",
            "coords": {
                "lat": 36.2094156,
                "lon": 58.7903065
            },
            "arrival_seconds": 36994.199435099064,
            "temperature_celsius": 16,
            "arrival_time": "11:16"
        },
        {
            "place": "چهارراه ۱۷ شهریور",
            "type": "locality",
            "coords": {
                "lat": 36.21616,
                "lon": 58.789937
            },
            "arrival_seconds": 36994.40388827015,
            "temperature_celsius": 16,
            "arrival_time": "11:16"
        },
        {
            "place": "سه راه کمال",
            "type": "locality",
            "coords": {
                "lat": 36.2045734,
                "lon": 58.7918913
            },
            "arrival_seconds": 37000.625554331426,
            "temperature_celsius": 16,
            "arrival_time": "11:16"
        },
        {
            "place": "سه راه عطار",
            "type": "locality",
            "coords": {
                "lat": 36.2071342,
                "lon": 58.7923685
            },
            "arrival_seconds": 37003.74684800623,
            "temperature_celsius": 16,
            "arrival_time": "11:16"
        },
        {
            "place": "نیشابور",
            "type": "city",
            "coords": {
                "lat": 36.2105604,
                "lon": 58.7922291
            },
            "arrival_seconds": 37004.075691705715,
            "temperature_celsius": 16,
            "arrival_time": "11:16"
        },
        {
            "place": "فلکه ایران",
            "type": "locality",
            "coords": {
                "lat": 36.2062126,
                "lon": 58.793468
            },
            "arrival_seconds": 37008.92721932642,
            "temperature_celsius": 16,
            "arrival_time": "11:16"
        },
        {
            "place": "چهارراه عدالت",
            "type": "locality",
            "coords": {
                "lat": 36.2008533,
                "lon": 58.7950879
            },
            "arrival_seconds": 37015.39556600704,
            "temperature_celsius": 16,
            "arrival_time": "11:16"
        },
        {
            "place": "چهارراه شورا",
            "type": "locality",
            "coords": {
                "lat": 36.2132483,
                "lon": 58.7951619
            },
            "arrival_seconds": 37019.42682635784,
            "temperature_celsius": 16,
            "arrival_time": "11:16"
        },
        {
            "place": "چهارراه آفتاب",
            "type": "locality",
            "coords": {
                "lat": 36.2109262,
                "lon": 58.7970234
            },
            "arrival_seconds": 37027.95929094454,
            "temperature_celsius": 16,
            "arrival_time": "11:17"
        },
        {
            "place": "میدون بار",
            "type": "locality",
            "coords": {
                "lat": 36.1928772,
                "lon": 58.7981183
            },
            "arrival_seconds": 37028.15296049808,
            "temperature_celsius": 16,
            "arrival_time": "11:17"
        },
        {
            "place": "شهرک زرگران",
            "type": "neighbourhood",
            "coords": {
                "lat": 36.1853228,
                "lon": 58.8009689
            },
            "arrival_seconds": 37040.20287927114,
            "temperature_celsius": 16,
            "arrival_time": "11:17"
        },
        {
            "place": "چهارراه باهنر",
            "type": "locality",
            "coords": {
                "lat": 36.2125637,
                "lon": 58.801558
            },
            "arrival_seconds": 37050.93636557652,
            "temperature_celsius": 16,
            "arrival_time": "11:17"
        },
        {
            "place": "شهرک ابراهیمی",
            "type": "neighbourhood",
            "coords": {
                "lat": 36.187841,
                "lon": 58.8037296
            },
            "arrival_seconds": 37054.58975949827,
            "temperature_celsius": 16,
            "arrival_time": "11:17"
        },
        {
            "place": "چهارراه بعثت",
            "type": "locality",
            "coords": {
                "lat": 36.2059763,
                "lon": 58.8035231
            },
            "arrival_seconds": 37058.72406808433,
            "temperature_celsius": 16,
            "arrival_time": "11:17"
        },
        {
            "place": "پنجراه",
            "type": "neighbourhood",
            "coords": {
                "lat": 36.1945549,
                "lon": 58.8044673
            },
            "arrival_seconds": 37060.11988605455,
            "temperature_celsius": 16,
            "arrival_time": "11:17"
        },
        {
            "place": "سه راه خاتم",
            "type": "locality",
            "coords": {
                "lat": 36.211098,
                "lon": 58.8040368
            },
            "arrival_seconds": 37062.78883182707,
            "temperature_celsius": 16,
            "arrival_time": "11:17"
        },
        {
            "place": "سه راه تختی",
            "type": "locality",
            "coords": {
                "lat": 36.2095252,
                "lon": 58.8058817
            },
            "arrival_seconds": 37071.468938345075,
            "temperature_celsius": 16,
            "arrival_time": "11:17"
        },
        {
            "place": "چهارراه مدرس",
            "type": "locality",
            "coords": {
                "lat": 36.2029973,
                "lon": 58.8069473
            },
            "arrival_seconds": 37074.83658431539,
            "temperature_celsius": 16,
            "arrival_time": "11:17"
        },
        {
            "place": "فلکه آزادی",
            "type": "locality",
            "coords": {
                "lat": 36.2087655,
                "lon": 58.8070627
            },
            "arrival_seconds": 37077.10023818324,
            "temperature_celsius": 16,
            "arrival_time": "11:17"
        },
        {
            "place": "سه راه مدرس",
            "type": "locality",
            "coords": {
                "lat": 36.207395,
                "lon": 58.8088679
            },
            "arrival_seconds": 37085.64771107393,
            "temperature_celsius": 16,
            "arrival_time": "11:18"
        },
        {
            "place": "میدان جهاد",
            "type": "neighbourhood",
            "coords": {
                "lat": 36.2001464,
                "lon": 58.809808
            },
            "arrival_seconds": 37088.202059831834,
            "temperature_celsius": 16,
            "arrival_time": "11:18"
        },
        {
            "place": "چهارراه قدس",
            "type": "locality",
            "coords": {
                "lat": 36.2063639,
                "lon": 58.810484
            },
            "arrival_seconds": 37093.35929931621,
            "temperature_celsius": 16,
            "arrival_time": "11:18"
        },
        {
            "place": "استقلال",
            "type": "neighbourhood",
            "coords": {
                "lat": 36.1931963,
                "lon": 58.8122647
            },
            "arrival_seconds": 37098.41800293543,
            "temperature_celsius": 16,
            "arrival_time": "11:18"
        },
        {
            "place": "سه راه ملانوروز",
            "type": "locality",
            "coords": {
                "lat": 36.2050103,
                "lon": 58.8122192
            },
            "arrival_seconds": 37101.568829394746,
            "temperature_celsius": 16,
            "arrival_time": "11:18"
        },
        {
            "place": "روستای شهر کهنه",
            "type": "village",
            "coords": {
                "lat": 36.1778189,
                "lon": 58.8145505
            },
            "arrival_seconds": 37105.57785927413,
            "temperature_celsius": 16,
            "arrival_time": "11:18"
        },
        {
            "place": "سه راه جهاد",
            "type": "locality",
            "coords": {
                "lat": 36.2038228,
                "lon": 58.8138782
            },
            "arrival_seconds": 37109.45101276743,
            "temperature_celsius": 16,
            "arrival_time": "11:18"
        },
        {
            "place": "چهارراه فجر",
            "type": "locality",
            "coords": {
                "lat": 36.2030385,
                "lon": 58.815078
            },
            "arrival_seconds": 37115.1741773879,
            "temperature_celsius": 16,
            "arrival_time": "11:18"
        },
        {
            "place": "شهرک مهران",
            "type": "neighbourhood",
            "coords": {
                "lat": 36.1895617,
                "lon": 58.8178079
            },
            "arrival_seconds": 37124.907810818266,
            "temperature_celsius": 16,
            "arrival_time": "11:18"
        },
        {
            "place": "سه راه ترمینال",
            "type": "locality",
            "coords": {
                "lat": 36.2016938,
                "lon": 58.8172555
            },
            "arrival_seconds": 37125.58582573929,
            "temperature_celsius": 16,
            "arrival_time": "11:18"
        },
        {
            "place": "گنبد سبز",
            "type": "neighbourhood",
            "coords": {
                "lat": 36.1966923,
                "lon": 58.8183824
            },
            "arrival_seconds": 37129.74826755395,
            "temperature_celsius": 16,
            "arrival_time": "11:18"
        },
        {
            "place": "سه راه گنبدسبز",
            "type": "neighbourhood",
            "coords": {
                "lat": 36.1995884,
                "lon": 58.8198411
            },
            "arrival_seconds": 37137.80659575776,
            "temperature_celsius": 16,
            "arrival_time": "11:18"
        },
        {
            "place": "شهرک ناصر",
            "type": "neighbourhood",
            "coords": {
                "lat": 36.1978393,
                "lon": 58.8216938
            },